{
  "type": "FeatureCollection",
  "features": [
    {
      "type": "Feature",
      "geometry": {
        "type": "Point",
        "coordinates": [
          30.47027,
          50.44771
        ]
      },
      "properties": {
        "img": "img/2013/depo.jpg",
        "title": "Железнодорожное депо",
        "year": "2013",
        "dir": 180,
        "country": "Украина",
        "region": "Киев",
        "location": "КПИ",
        "marker-color": ""
      }
    },
    {
      "type": "Feature",
      "geometry": {
        "type": "Point",
        "coordinates": [
          30.45287,
          50.45311
        ]
      },
      "properties": {
        "marker-color": "",
        "marker-size": "",
        "marker-symbol": "",
        "img": "img/2013/pobedy39.jpg",
        "title": "Дом на проспекте Победы, 39",
        "year": 2013,
        "dir": 250,
        "country": "Украина",
        "region": "Киев",
        "location": "КПИ"
      }
    },
    {
      "type": "Feature",
      "properties": {
        "img": "img/2013/sennoy-ruins.jpg",
        "title": "Руины Сенного рынка",
        "year": 2013,
        "dir": 180,
        "country": "Украина",
        "region": "Киев",
        "location": "ул. Бульварно-Кудрявская (Воровского)",
        "marker-color": ""
      },
      "geometry": {
        "type": "Point",
        "coordinates": [
          30.50280779600143,
          50.452672890382644
        ]
      }
    },
    {
      "type": "Feature",
      "properties": {
        "img": "img/2013/dmytrivska24.jpg",
        "title": "",
        "year": 2013,
        "dir": 90,
        "country": "Украина",
        "region": "Киев",
        "location": "ул. Бульварно-Кудрявская (Воровского)"
      },
      "geometry": {
        "type": "Point",
        "coordinates": [
          30.493192076683044,
          50.448490294198585
        ]
      }
    },
    {
      "type": "Feature",
      "properties": {
        "img": "img/2013/gulliver.jpg",
        "title": "",
        "year": 2013,
        "dir": 75,
        "country": "Украина",
        "region": "Киев",
        "location": "ул. Бассейная"
      },
      "geometry": {
        "type": "Point",
        "coordinates": [
          30.525201559066772,
          50.43918102549796
        ]
      }
    },
    {
      "type": "Feature",
      "properties": {
        "marker-color": "",
        "marker-size": "",
        "marker-symbol": "",
        "img": "img/2014/maidan-rada-savosval.jpg",
        "title": "ул. Шелковичная, 19 января 2014",
        "year": 2014,
        "dir": 15,
        "country": "Украина",
        "region": "Киев",
        "location": "События 2013-14 гг."
      },
      "geometry": {
        "type": "Point",
        "coordinates": [
          30.534852147102356,
          50.44584972255912
        ]
      }
    },
    {
      "type": "Feature",
      "properties": {
        "marker-color": "",
        "marker-size": "",
        "marker-symbol": "",
        "img": "img/2014/maidan-bus.jpg",
        "title": "19 января 2014",
        "year": 2014,
        "dir": 180,
        "country": "Украина",
        "region": "Киев",
        "location": "События 2013-14 гг."
      },
      "geometry": {
        "type": "Point",
        "coordinates": [
          30.529836416244507,
          50.45132199835334
        ]
      }
    },
    {
      "type": "Feature",
      "properties": {
        "img": "img/2013/swim.jpg",
        "title": "",
        "year": 2013,
        "dir": 300,
        "country": "Украина",
        "region": "Киев",
        "location": "Днепр"
      },
      "geometry": {
        "type": "Point",
        "coordinates": [
          30.534734129905697,
          50.45714200161902
        ]
      }
    },
    {
      "type": "Feature",
      "properties": {
        "img": "img/2014/botsad.jpg",
        "title": "",
        "year": 2014,
        "dir": 150,
        "country": "Украина",
        "region": "Киев",
        "location": "Ботсад на Выдубичах"
      },
      "geometry": {
        "type": "Point",
        "coordinates": [
          30.56422233581543,
          50.41938121322239
        ]
      }
    },
    {
      "type": "Feature",
      "properties": {
        "dir": 330,
        "img": "img/2014/banner.jpg",
        "title": "",
        "year": 2014,
        "country": "Украина",
        "region": "Киев",
        "location": "Крещатик"
      },
      "geometry": {
        "type": "Point",
        "coordinates": [
          30.520818829536438,
          50.44465065626131
        ]
      }
    },
    {
      "type": "Feature",
      "properties": {
        "img": "img/2010/kremlin.jpg",
        "title": "Магазин &laquo;Кремль&raquo;",
        "year": 2010,
        "dir": 0,
        "country": "Украина",
        "region": "Киевская область",
        "location": "Студеныки (Жовтневе)"
      },
      "geometry": {
        "type": "Point",
        "coordinates": [
          31.610841751098633,
          50.2161288981097
        ]
      }
    },
    {
      "type": "Feature",
      "properties": {
        "img": "img/2013/beach-and-bridge.jpg",
        "title": "",
        "year": 2013,
        "dir": 10,
        "country": "Украина",
        "region": "Киев",
        "location": "Днепр"
      },
      "geometry": {
        "type": "Point",
        "coordinates": [
          30.533382296562195,
          50.455984205909076
        ]
      }
    },
    {
      "type": "Feature",
      "properties": {
        "img": "img/2014/maidan-rada-samosval-2.jpg",
        "title": "ул. Шелковичная, 19 января 2014",
        "year": 2014,
        "dir": 15,
        "country": "Украина",
        "region": "Киев",
        "location": "События 2013-14 гг."
      },
      "geometry": {
        "type": "Point",
        "coordinates": [
          30.534937977790836,
          50.44580189713466
        ]
      }
    },
    {
      "type": "Feature",
      "properties": {
        "img": "img/2014/maidan-snegurochka.jpg",
        "title": "",
        "year": 2013,
        "dir": 90,
        "country": "Украина",
        "region": "Киев",
        "location": "События 2013-14 гг."
      },
      "geometry": {
        "type": "Point",
        "coordinates": [
          30.523613691329953,
          50.449846390796374
        ]
      }
    },
    {
      "type": "Feature",
      "properties": {
        "img": "img/2012/roshen.jpg",
        "title": "Новый Год",
        "year": 2012,
        "dir": 65,
        "country": "Украина",
        "region": "Киев",
        "location": "Вокзал и окрестности"
      },
      "geometry": {
        "type": "Point",
        "coordinates": [
          30.490780770778652,
          50.444315868792515
        ]
      }
    },
    {
      "type": "Feature",
      "properties": {
        "img": "img/2012/shpaka.jpg",
        "year": 2012,
        "dir": 65,
        "country": "Украина",
        "region": "Киев",
        "location": "Шулявка"
      },
      "geometry": {
        "type": "Point",
        "coordinates": [
          30.436656475067135,
          50.46289982129637
        ]
      }
    },
    {
      "type": "Feature",
      "properties": {
        "img": "img/2012/tsum.jpg",
        "title": "",
        "year": 2012,
        "dir": 270,
        "country": "Украина",
        "region": "Киев",
        "location": "Крещатик"
      },
      "geometry": {
        "type": "Point",
        "coordinates": [
          30.52117824554443,
          50.44531680795536
        ]
      }
    }
  ]
}
